{"type":"FeatureCollection","features":[{"type":"Feature","properties":{"Name":"Orin's Place","Address":"Paccar Hall, University District, Seattle, WA 98195"},"geometry":{"type":"Point","coordinates":[-122.3090131,47.6593782]}},{"type":"Feature","properties":{"Name":"The Counter at Old Ballard Catering Co.","Address":"1505 NE 65th St, Seattle, WA 98115"},"geometry":{"type":"Point","coordinates":[-122.3115655,47.6756655]}},{"type":"Feature","properties":{"Name":"Itadakimasu","Address":"4743 Brooklyn Ave NE, Seattle, WA 98105"},"geometry":{"type":"Point","coordinates":[-122.3144687,47.6643376]}},{"type":"Feature","properties":{"Name":"Arepa Venezuelan Kitchen","Address":"1405 NE 50th St, Seattle, WA 98105"},"geometry":{"type":"Point","coordinates":[-122.3127087,47.6647633]}},{"type":"Feature","properties":{"Name":"Din Tai Fung","Address":"2621 NE 46th St, Seattle, WA 98105"},"geometry":{"type":"Point","coordinates":[-122.2997454,47.6615387]}},{"type":"Feature","properties":{"Name":"Beetle Cafe","Address":"4334 University Way NE, Seattle, WA 98105"},"geometry":{"type":"Point","coordinates":[-122.312871,47.6607599]}},{"type":"Feature","properties":{"Name":"Mark Thai Food Box","Address":"1313 NE 43rd St, Seattle, WA 98105"},"geometry":{"type":"Point","coordinates":[-122.3136637,47.659693]}},{"type":"Feature","properties":{"Name":"Time Bistro","Address":"4537B University Way NE, Seattle, WA 98105"},"geometry":{"type":"Point","coordinates":[-122.3132683,47.6624039]}},{"type":"Feature","properties":{"Name":"Shawarma King","Address":"4337 University Way NE, Seattle, WA 98105"},"geometry":{"type":"Point","coordinates":[-122.3134289,47.6609142]}},{"type":"Feature","properties":{"Name":"Queen Anne Beerhall","Address":"203 W Thomas St, Seattle, WA 98119"},"geometry":{"type":"Point","coordinates":[-122.359704,47.620803]}}]}